{
  "sellers" : [ {
    "name" : "Alice Pauline",
    "phone" : "94351253",
    "appointment" : "2022-05-01-12-00",
    "tagged" : [ "friends" ],
    "propertyToSell" : {
      "house" : {
        "houseType" : "Bungalow",
        "location" : "bishan"
      },
      "priceRange" : {
        "lower" : "10",
        "upper" : "20"
      },
      "address" : "Bishan Street 5"
    }
  }, {
    "name" : "Benson Meier",
    "phone" : "98765432",
    "appointment" : "2022-05-04-09-00",
    "tagged" : [ "owesMoney", "friends" ],
    "propertyToSell" : {
      "house" : {
        "houseType" : "HDB",
        "location" : "bishan"
      },
      "priceRange" : {
        "lower" : "10",
        "upper" : "20"
      },
      "address" : "Bishan Ave 3 Blk 123"
    }
  }, {
    "name" : "Carl Kurz",
    "phone" : "95352563",
    "appointment" : "",
    "tagged" : [ ],
    "propertyToSell" : {
      "house" : {
        "houseType" : "Colonia",
        "location" : "clementi"
      },
      "priceRange" : {
        "lower" : "10",
        "upper" : "20"
      },
      "address" : "Clementi Town block 7"
    }
  }, {
    "name" : "Daniel Meier",
    "phone" : "87652533",
    "appointment" : "",
    "tagged" : [ "friends" ],
    "propertyToSell" : {
      "house" : {
        "houseType" : "Bungalow",
        "location" : "bishan"
      },
      "priceRange" : {
        "lower" : "10",
        "upper" : "20"
      },
      "address" : "Bishan District 8"
    }
  }, {
    "name" : "Elle Meyer",
    "phone" : "9482224",
    "appointment" : "",
    "tagged" : [ ],
    "propertyToSell" : {
      "house" : {
        "houseType" : "Apartment",
        "location" : "ang mo kio"
      },
      "priceRange" : {
        "lower" : "10",
        "upper" : "20"
      },
      "address" : "Ang Mo Kio Ave 3"
    }
  }, {
    "name" : "Fiona Kunz",
    "phone" : "9482427",
    "appointment" : "",
    "tagged" : [ ],
    "propertyToSell" : {
      "house" : {
        "houseType" : "Bungalow",
        "location" : "bishan"
      },
      "priceRange" : {
        "lower" : "20",
        "upper" : "25"
      },
      "address" : "Bishan Street 11"
    }
  }, {
    "name" : "George Best",
    "phone" : "9482442",
    "appointment" : "",
    "tagged" : [ ],
    "propertyToSell" : null
  } ]
}
